[
{"type":"header","version":"5.0.2","comment":"Export to JSON plugin for PHPMyAdmin"},
{"type":"database","name":"brig"},
{"type":"table","name":"locations","database":"brig","data":
[
{"id":"1","name":"Boiketlo","lat":"-29.2781363","lng":"27.5438517","coordinates":"-29.2781363, 27.5438517","accuracy":"4.36899995803833","timestamp":"2022-03-24 15:13:48"},
{"id":"2","name":"TC","lat":"-29.2770148","lng":"27.542181","coordinates":"-29.2770148, 27.542181","accuracy":"3.9000000953674316","timestamp":"2022-03-24 15:14:20"},
{"id":"3","name":"Supermarket","lat":"-29.2758091","lng":"27.5402267","coordinates":"-29.2758091, 27.5402267","accuracy":"3.9000000953674316","timestamp":"2022-03-24 15:14:57"},
{"id":"4","name":"Wilies","lat":"-29.2781408","lng":"27.5289754","coordinates":"-29.2781408, 27.5289754","accuracy":"3.9000000953674316","timestamp":"2022-03-24 15:17:28"},
{"id":"5","name":"","lat":"-29.2782653","lng":"27.5264808","coordinates":"-29.2782653, 27.5264808","accuracy":"4.5","timestamp":"2022-03-24 15:20:18"},
{"id":"6","name":"","lat":"-29.2794757","lng":"27.5213735","coordinates":"-29.2794757, 27.5213735","accuracy":"3.936000108718872","timestamp":"2022-03-24 15:21:58"},
{"id":"7","name":"Temong","lat":"-29.2968092","lng":"27.5052829","coordinates":"-29.2968092, 27.5052829","accuracy":"3.8329999446868896","timestamp":"2022-03-24 15:27:05"},
{"id":"8","name":"Sefateng","lat":"-29.3111248","lng":"27.4950441","coordinates":"-29.3111248, 27.4950441","accuracy":"3.9000000953674316","timestamp":"2022-03-24 15:33:09"},
{"id":"9","name":"Tip Top","lat":"-29.3121584","lng":"27.4928604","coordinates":"-29.3121584, 27.4928604","accuracy":"3.9000000953674316","timestamp":"2022-03-24 15:34:17"},
{"id":"10","name":"BNP Center","lat":"-29.314411","lng":"27.4876961","coordinates":"-29.314411, 27.4876961","accuracy":"3.9000000953674316","timestamp":"2022-03-24 15:36:58"},
{"id":"11","name":"Lancer's Inn","lat":"-29.3139374","lng":"27.4804849","coordinates":"-29.3139374, 27.4804849","accuracy":"3.700000047683716","timestamp":"2022-03-24 15:40:30"},
{"id":"12","name":"Pioneer mall","lat":"-29.3161882","lng":"27.4772599","coordinates":"-29.3161882, 27.4772599","accuracy":"3.933000087738037","timestamp":"2022-03-24 15:42:56"}
]
}
]
